#frame,timestamp,world_timestamp,location.x,location.y,location.z,rotation.pitch,rotation.yaw,rotation.roll,latitude,longitude,altitude
8,1.954726972617209,16780961.4806162,88.71004486083984,237.42999267578125,2.8996472358703613,0.0,-179.9996337890625,0.0,-0.0021328699127991513,0.0007968958915342084,2.8996472358703613
10,1.966726972721517,16780963.0665233,88.71004486083984,237.42999267578125,2.897883176803589,0.0,-179.9996337890625,0.0,-0.0021328699127991513,0.0007968958915342084,2.897883176803589
11,1.9727269727736712,16780963.3179858,88.71004486083984,237.42999267578125,2.896472215652466,0.0,-179.9996337890625,0.0,-0.0021328699127991513,0.0007968958915342084,2.896472215652466
12,1.9787269728258252,16780963.5686203,88.71004486083984,237.42999267578125,2.8947081565856934,0.0,-179.9996337890625,0.0,-0.0021328699127991513,0.0007968958915342084,2.8947081565856934
13,1.9847269728779793,16780963.8012467,88.71004486083984,237.42999267578125,2.8925914764404297,0.0,-179.9996337890625,0.0,-0.0021328699127991513,0.0007968958915342084,2.8925914764404297
14,1.9907269729301333,16780964.0463881,88.71004486083984,237.42999267578125,2.8901216983795166,0.0,-179.9996337890625,0.0,-0.0021328699127991513,0.0007968958915342084,2.8901216983795166
15,1.9967269729822874,16780964.2990027,88.71004486083984,237.42999267578125,2.887299060821533,0.0,-179.9996337890625,0.0,-0.0021328699127991513,0.0007968958915342084,2.887299060821533
16,2.0027269730344415,16780964.532671,88.71004486083984,237.42999267578125,2.8841240406036377,0.0,-179.9996337890625,0.0,-0.0021328699127991513,0.0007968958915342084,2.8841240406036377
17,2.0087269730865955,16780964.8080763,88.71004486083984,237.42999267578125,2.880596160888672,0.0,-179.9996337890625,0.0,-0.0021328699127991513,0.0007968958915342084,2.880596160888672
18,2.0147269731387496,16780965.0470667,88.71004486083984,237.42999267578125,2.8767154216766357,0.0,-179.9996337890625,0.0,-0.0021328699127991513,0.0007968958915342084,2.8767154216766357
19,2.0207269731909037,16780965.3042247,88.71004486083984,237.42999267578125,2.87248158454895,0.0,-179.9996337890625,0.0,-0.0021328699127991513,0.0007968958915342084,2.87248158454895
20,2.0267269732430577,16780965.5457579,88.71004486083984,237.42999267578125,2.8678953647613525,0.0,-179.9996337890625,0.0,-0.0021328699127991513,0.0007968958915342084,2.8678953647613525
21,2.032726973295212,16780965.8141912,88.71004486083984,237.42999267578125,2.8629562854766846,0.0,-179.9996337890625,0.0,-0.0021328699127991513,0.0007968958915342084,2.8629562854766846
22,2.038726973347366,16780966.0621039,88.71004486083984,237.42999267578125,2.857664108276367,0.0,-179.9996337890625,0.0,-0.0021328699127991513,0.0007968958915342084,2.857664108276367
23,2.04472697339952,16780966.3302155,88.71004486083984,237.42999267578125,2.8520193099975586,0.0,-179.9996337890625,0.0,-0.0021328699127991513,0.0007968958915342084,2.8520193099975586
24,2.050726973451674,16780966.6018827,88.71004486083984,237.42999267578125,2.8460216522216797,0.0,-179.9996337890625,0.0,-0.0021328699127991513,0.0007968958915342084,2.8460216522216797
25,2.056726973503828,16780966.8671558,88.71004486083984,237.42999267578125,2.8396713733673096,0.0,-179.9996337890625,0.0,-0.0021328699127991513,0.0007968958915342084,2.8396713733673096
26,2.062726973555982,16780967.1378293,88.71004486083984,237.42999267578125,2.83296799659729,0.0,-179.9996337890625,0.0,-0.0021328699127991513,0.0007968958915342084,2.83296799659729
27,2.068726973608136,16780967.3963245,88.71004486083984,237.42999267578125,2.8259119987487793,0.0,-179.9996337890625,0.0,-0.0021328699127991513,0.0007968958915342084,2.8259119987487793
28,2.0747269736602902,16780967.6597653,88.71004486083984,237.42999267578125,2.8185033798217773,0.0,-179.9996337890625,0.0,-0.0021328699127991513,0.0007968958915342084,2.8185033798217773
29,2.0807269737124443,16780967.9252677,88.71004486083984,237.42999267578125,2.810741424560547,0.0,-179.9996337890625,0.0,-0.0021328699127991513,0.0007968958915342084,2.810741424560547
30,2.0867269737645984,16780968.2063793,88.71004486083984,237.42999267578125,2.8026270866394043,0.0,-179.9996337890625,0.0,-0.0021328699127991513,0.0007968958915342084,2.8026270866394043
31,2.0927269738167524,16780968.4612187,88.71004486083984,237.42999267578125,2.7941601276397705,0.0,-179.9996337890625,0.0,-0.0021328699127991513,0.0007968958915342084,2.7941601276397705
32,2.0987269738689065,16780968.7433568,88.71004486083984,237.42999267578125,2.785339832305908,0.0,-179.9996337890625,0.0,-0.0021328699127991513,0.0007968958915342084,2.785339832305908
33,2.1047269739210606,16780968.9987596,88.71004486083984,237.42999267578125,2.776167154312134,0.0,-179.9996337890625,0.0,-0.0021328699127991513,0.0007968958915342084,2.776167154312134
34,2.1107269739732146,16780969.2873401,88.71004486083984,237.42999267578125,2.766641855239868,0.0,-179.9996337890625,0.0,-0.0021328699127991513,0.0007968958915342084,2.766641855239868
35,2.1167269740253687,16780969.5386658,88.71004486083984,237.42999267578125,2.756763219833374,0.0,-179.9996337890625,0.0,-0.0021328699127991513,0.0007968958915342084,2.756763219833374
36,2.1227269740775228,16780969.8274949,88.71004486083984,237.42999267578125,2.7465319633483887,0.0,-179.9996337890625,0.0,-0.0021328699127991513,0.0007968958915342084,2.7465319633483887
37,2.128726974129677,16780970.0945007,88.71004486083984,237.42999267578125,2.735948085784912,0.0,-179.9996337890625,0.0,-0.0021328699127991513,0.0007968958915342084,2.735948085784912
38,2.134726974181831,16780970.3823037,88.71004486083984,237.42999267578125,2.7250113487243652,0.0,-179.9996337890625,0.0,-0.0021328699127991513,0.0007968958915342084,2.7250113487243652
39,2.140726974233985,16780970.6361267,88.71004486083984,237.42999267578125,2.713721513748169,0.0,-179.9996337890625,0.0,-0.0021328699127991513,0.0007968958915342084,2.713721513748169
40,2.146726974286139,16780970.9224218,88.71004486083984,237.42999267578125,2.7020792961120605,0.0,-179.9996337890625,0.0,-0.0021328699127991513,0.0007968958915342084,2.7020792961120605
41,2.152726974338293,16780971.1881114,88.71004486083984,237.42999267578125,2.690411329269409,0.0,-179.9996337890625,0.0,-0.0021328699127991513,0.0007968958915342084,2.690411329269409
42,2.158726974390447,16780971.4789557,88.71004486083984,237.42999267578125,2.6798095703125,0.0,-179.9996337890625,0.0,-0.0021328699127991513,0.0007968958915342084,2.6798095703125
43,2.164726974442601,16780971.7729894,88.71004486083984,237.42999267578125,2.670163631439209,0.0,-179.9996337890625,0.0,-0.0021328699127991513,0.0007968958915342084,2.670163631439209
44,2.1707269744947553,16780972.0704588,88.71004486083984,237.42999267578125,2.6613993644714355,0.0,-179.9996337890625,0.0,-0.0021328699127991513,0.0007968958915342084,2.6613993644714355
45,2.1767269745469093,16780972.3560301,88.71004486083984,237.42999267578125,2.6534509658813477,0.0,-179.9996337890625,0.0,-0.0021328699127991513,0.0007968958915342084,2.6534509658813477
46,2.1827269745990634,16780972.6412183,88.71004486083984,237.42999267578125,2.646253824234009,0.0,-179.9996337890625,0.0,-0.0021328699127991513,0.0007968958915342084,2.646253824234009
47,2.1887269746512175,16780972.9392757,88.71004486083984,237.42999267578125,2.6397507190704346,0.0,-179.9996337890625,0.0,-0.0021328699127991513,0.0007968958915342084,2.6397507190704346
48,2.1947269747033715,16780973.2162241,88.71004486083984,237.42999267578125,2.6338863372802734,0.0,-179.9996337890625,0.0,-0.0021328699127991513,0.0007968958915342084,2.6338863372802734
49,2.2007269747555256,16780973.5139741,88.71004486083984,237.42999267578125,2.628610372543335,0.0,-179.9996337890625,0.0,-0.0021328699127991513,0.0007968958915342084,2.628610372543335
50,2.2067269748076797,16780973.7940688,88.71004486083984,237.42999267578125,2.6238765716552734,0.0,-179.9996337890625,0.0,-0.0021328699127991513,0.0007968958915342084,2.6238765716552734
51,2.2127269748598337,16780974.1154109,88.71004486083984,237.42999267578125,2.619640827178955,0.0,-179.9996337890625,0.0,-0.0021328699127991513,0.0007968958915342084,2.619640827178955
52,2.218726974911988,16780974.4071929,88.71004486083984,237.42999267578125,2.615863084793091,0.0,-179.9996337890625,0.0,-0.0021328699127991513,0.0007968958915342084,2.615863084793091
53,2.224726974964142,16780974.7273355,88.71004486083984,237.42999267578125,2.6125054359436035,0.0,-179.9996337890625,0.0,-0.0021328699127991513,0.0007968958915342084,2.6125054359436035
54,2.230726975016296,16780975.0154551,88.71004486083984,237.42999267578125,2.6095335483551025,0.0,-179.9996337890625,0.0,-0.0021328699127991513,0.0007968958915342084,2.6095335483551025
55,2.23672697506845,16780975.3248429,88.71004486083984,237.42999267578125,2.606915235519409,0.0,-179.9996337890625,0.0,-0.0021328699127991513,0.0007968958915342084,2.606915235519409
56,2.242726975120604,16780975.6134954,88.71004486083984,237.42999267578125,2.604620933532715,0.0,-179.9996337890625,0.0,-0.0021328699127991513,0.0007968958915342084,2.604620933532715
57,2.248726975172758,16780975.9142152,88.71004486083984,237.42999267578125,2.6026222705841064,0.0,-179.9996337890625,0.0,-0.0021328699127991513,0.0007968958915342084,2.6026222705841064
58,2.254726975224912,16780976.1978592,88.71004486083984,237.42999267578125,2.6008946895599365,0.0,-179.9996337890625,0.0,-0.0021328699127991513,0.0007968958915342084,2.6008946895599365
59,2.2607269752770662,16780976.4978993,88.71004486083984,237.42999267578125,2.5994136333465576,0.0,-179.9996337890625,0.0,-0.0021328699127991513,0.0007968958915342084,2.5994136333465576
60,2.2667269753292203,16780976.8093142,88.71004486083984,237.42999267578125,2.5981578826904297,0.0,-179.9996337890625,0.0,-0.0021328699127991513,0.0007968958915342084,2.5981578826904297
61,2.2727269753813744,16780977.0969915,88.71004486083984,237.42999267578125,2.59710693359375,0.0,-179.9996337890625,0.0,-0.0021328699127991513,0.0007968958915342084,2.59710693359375
62,2.2787269754335284,16780977.3962927,88.71004486083984,237.42999267578125,2.5962419509887695,0.0,-179.9996337890625,0.0,-0.0021328699127991513,0.0007968958915342084,2.5962419509887695
63,2.2847269754856825,16780977.6729375,88.71004486083984,237.42999267578125,2.595546245574951,0.0,-179.9996337890625,0.0,-0.0021328699127991513,0.0007968958915342084,2.595546245574951
64,2.2907269755378366,16780977.9805076,88.71004486083984,237.42999267578125,2.595003366470337,0.0,-179.9996337890625,0.0,-0.0021328699127991513,0.0007968958915342084,2.595003366470337
65,2.2967269755899906,16780978.2573831,88.71004486083984,237.42999267578125,2.5945985317230225,0.0,-179.9996337890625,0.0,-0.0021328699127991513,0.0007968958915342084,2.5945985317230225
66,2.3027269756421447,16780978.5562654,88.71004486083984,237.42999267578125,2.5943191051483154,0.0,-179.9996337890625,0.0,-0.0021328699127991513,0.0007968958915342084,2.5943191051483154
67,2.3087269756942987,16780978.8383748,88.71004486083984,237.42999267578125,2.5941519737243652,0.0,-179.9996337890625,0.0,-0.0021328699127991513,0.0007968958915342084,2.5941519737243652
68,2.314726975746453,16780979.1355933,88.71004486083984,237.42999267578125,2.594085216522217,0.0,-179.9996337890625,0.0,-0.0021328699127991513,0.0007968958915342084,2.594085216522217
69,2.320726975798607,16780979.4170569,88.71004486083984,237.42999267578125,2.594109058380127,0.0,-179.9996337890625,0.0,-0.0021328699127991513,0.0007968958915342084,2.594109058380127
70,2.326726975850761,16780979.7079867,88.71004486083984,237.42999267578125,2.5942137241363525,0.0,-179.9996337890625,0.0,-0.0021328699127991513,0.0007968958915342084,2.5942137241363525
71,2.332726975902915,16780980.0018973,88.71004486083984,237.42999267578125,2.5943899154663086,0.0,-179.9996337890625,0.0,-0.0021328699127991513,0.0007968958915342084,2.5943899154663086
72,2.338726975955069,16780980.2945054,88.71004486083984,237.42999267578125,2.5946297645568848,0.0,-179.9996337890625,0.0,-0.0021328699127991513,0.0007968958915342084,2.5946297645568848
73,2.344726976007223,16780980.582012,88.71004486083984,237.42999267578125,2.594925880432129,0.0,-179.9996337890625,0.0,-0.0021328699127991513,0.0007968958915342084,2.594925880432129
74,2.350726976059377,16780980.8684548,88.71004486083984,237.42999267578125,2.595270872116089,0.0,-179.9996337890625,0.0,-0.0021328699127991513,0.0007968958915342084,2.595270872116089
75,2.3567269761115313,16780981.1718955,88.71004486083984,237.42999267578125,2.595658779144287,0.0,-179.9996337890625,0.0,-0.0021328699127991513,0.0007968958915342084,2.595658779144287
76,2.3627269761636853,16780981.4504145,88.71004486083984,237.42999267578125,2.596083879470825,0.0,-179.9996337890625,0.0,-0.0021328699127991513,0.0007968958915342084,2.596083879470825
77,2.3687269762158394,16780981.7443756,88.71004486083984,237.42999267578125,2.596541166305542,0.0,-179.9996337890625,0.0,-0.0021328699127991513,0.0007968958915342084,2.596541166305542
78,2.3747269762679935,16780982.0252421,88.71004486083984,237.42999267578125,2.5970253944396973,0.0,-179.9996337890625,0.0,-0.0021328699127991513,0.0007968958915342084,2.5970253944396973
79,2.3807269763201475,16780982.321531,88.71004486083984,237.42999267578125,2.597532272338867,0.0,-179.9996337890625,0.0,-0.0021328699127991513,0.0007968958915342084,2.597532272338867
80,2.3867269763723016,16780982.6029859,88.71004486083984,237.42999267578125,2.5980584621429443,0.0,-179.9996337890625,0.0,-0.0021328699127991513,0.0007968958915342084,2.5980584621429443
81,2.3927269764244556,16780982.8950821,88.71004486083984,237.42999267578125,2.598599433898926,0.0,-179.9996337890625,0.0,-0.0021328699127991513,0.0007968958915342084,2.598599433898926
82,2.3987269764766097,16780983.1729045,88.71004486083984,237.42999267578125,2.5991528034210205,0.0,-179.9996337890625,0.0,-0.0021328699127991513,0.0007968958915342084,2.5991528034210205
83,2.4047269765287638,16780983.4841315,88.71004486083984,237.42999267578125,2.599714994430542,0.0,-179.9996337890625,0.0,-0.0021328699127991513,0.0007968958915342084,2.599714994430542
84,2.410726976580918,16780983.7704296,88.71004486083984,237.42999267578125,2.6002838611602783,0.0,-179.9996337890625,0.0,-0.0021328699127991513,0.0007968958915342084,2.6002838611602783
85,2.416726976633072,16780984.0710592,88.71004486083984,237.42999267578125,2.6008565425872803,0.0,-179.9996337890625,0.0,-0.0021328699127991513,0.0007968958915342084,2.6008565425872803
86,2.422726976685226,16780984.3461253,88.71004486083984,237.42999267578125,2.601431131362915,0.0,-179.9996337890625,0.0,-0.0021328699127991513,0.0007968958915342084,2.601431131362915
87,2.42872697673738,16780984.6414416,88.71004486083984,237.42999267578125,2.6020054817199707,0.0,-179.9996337890625,0.0,-0.0021328699127991513,0.0007968958915342084,2.6020054817199707
88,2.434726976789534,16780984.9168814,88.71004486083984,237.42999267578125,2.6025784015655518,0.0,-179.9996337890625,0.0,-0.0021328699127991513,0.0007968958915342084,2.6025784015655518
89,2.440726976841688,16780985.2151764,88.71004486083984,237.42999267578125,2.6031477451324463,0.0,-179.9996337890625,0.0,-0.0021328699127991513,0.0007968958915342084,2.6031477451324463
90,2.446726976893842,16780985.509403,88.71004486083984,237.42999267578125,2.603712797164917,0.0,-179.9996337890625,0.0,-0.0021328699127991513,0.0007968958915342084,2.603712797164917
91,2.4527269769459963,16780985.813238,88.71004486083984,237.42999267578125,2.604271411895752,0.0,-179.9996337890625,0.0,-0.0021328699127991513,0.0007968958915342084,2.604271411895752
92,2.4587269769981503,16780986.0948389,88.71004486083984,237.42999267578125,2.604823589324951,0.0,-179.9996337890625,0.0,-0.0021328699127991513,0.0007968958915342084,2.604823589324951
93,2.4647269770503044,16780986.3689405,88.71004486083984,237.42999267578125,2.605367660522461,0.0,-179.9996337890625,0.0,-0.0021328699127991513,0.0007968958915342084,2.605367660522461
94,2.4707269771024585,16780986.659291,88.71004486083984,237.42999267578125,2.605903148651123,0.0,-179.9996337890625,0.0,-0.0021328699127991513,0.0007968958915342084,2.605903148651123
95,2.4767269771546125,16780986.9597023,88.71004486083984,237.42999267578125,2.6064293384552,0.0,-179.9996337890625,0.0,-0.0021328699127991513,0.0007968958915342084,2.6064293384552
96,2.4827269772067666,16780987.2580261,88.71004486083984,237.42999267578125,2.606945753097534,0.0,-179.9996337890625,0.0,-0.0021328699127991513,0.0007968958915342084,2.606945753097534
97,2.4887269772589207,16780987.5425313,88.71004486083984,237.42999267578125,2.6074516773223877,0.0,-179.9996337890625,0.0,-0.0021328699127991513,0.0007968958915342084,2.6074516773223877
98,2.4947269773110747,16780987.8500571,88.71004486083984,237.42999267578125,2.6079466342926025,0.0,-179.9996337890625,0.0,-0.0021328699127991513,0.0007968958915342084,2.6079466342926025
99,2.500726977363229,16780988.1367705,88.71004486083984,237.42999267578125,2.6084303855895996,0.0,-179.9996337890625,0.0,-0.0021328699127991513,0.0007968958915342084,2.6084303855895996
100,2.506726977415383,16780988.4533947,88.71004486083984,237.42999267578125,2.608902931213379,0.0,-179.9996337890625,0.0,-0.0021328699127991513,0.0007968958915342084,2.608902931213379
101,2.512726977467537,16780988.7371308,88.71004486083984,237.42999267578125,2.609363555908203,0.0,-179.9996337890625,0.0,-0.0021328699127991513,0.0007968958915342084,2.609363555908203
102,2.518726977519691,16780989.030792,88.71004486083984,237.42999267578125,2.6098129749298096,0.0,-179.9996337890625,0.0,-0.0021328699127991513,0.0007968958915342084,2.6098129749298096
103,2.524726977571845,16780989.3077792,88.71004486083984,237.42999267578125,2.610250234603882,0.0,-179.9996337890625,0.0,-0.0021328699127991513,0.0007968958915342084,2.610250234603882
104,2.530726977623999,16780989.6043982,88.71004486083984,237.42999267578125,2.61067533493042,0.0,-179.9996337890625,0.0,-0.0021328699127991513,0.0007968958915342084,2.61067533493042
105,2.536726977676153,16780989.8964296,88.71004486083984,237.42999267578125,2.611088752746582,0.0,-179.9996337890625,0.0,-0.0021328699127991513,0.0007968958915342084,2.611088752746582
106,2.5427269777283072,16780990.1776984,88.71004486083984,237.42999267578125,2.61149001121521,0.0,-179.9996337890625,0.0,-0.0021328699127991513,0.0007968958915342084,2.61149001121521
107,2.5487269777804613,16780990.4721199,88.71004486083984,237.42999267578125,2.611879825592041,0.0,-179.9996337890625,0.0,-0.0021328699127991513,0.0007968958915342084,2.611879825592041
108,2.5547269778326154,16780990.7533913,88.71004486083984,237.42999267578125,2.612257719039917,0.0,-179.9996337890625,0.0,-0.0021328699127991513,0.0007968958915342084,2.612257719039917
109,2.5607269778847694,16780991.058859,88.71004486083984,237.42999267578125,2.612623929977417,0.0,-179.9996337890625,0.0,-0.0021328699127991513,0.0007968958915342084,2.612623929977417
110,2.5667269779369235,16780991.3420603,88.71004486083984,237.42999267578125,2.61297869682312,0.0,-179.9996337890625,0.0,-0.0021328699127991513,0.0007968958915342084,2.61297869682312
111,2.5727269779890776,16780991.6379192,88.71004486083984,237.42999267578125,2.6133220195770264,0.0,-179.9996337890625,0.0,-0.0021328699127991513,0.0007968958915342084,2.6133220195770264
112,2.5787269780412316,16780991.9364743,88.71004486083984,237.42999267578125,2.613654375076294,0.0,-179.9996337890625,0.0,-0.0021328699127991513,0.0007968958915342084,2.613654375076294
113,2.5847269780933857,16780992.2255733,88.71004486083984,237.42999267578125,2.613975763320923,0.0,-179.9996337890625,0.0,-0.0021328699127991513,0.0007968958915342084,2.613975763320923
114,2.5907269781455398,16780992.5081941,88.71004486083984,237.42999267578125,2.614286184310913,0.0,-179.9996337890625,0.0,-0.0021328699127991513,0.0007968958915342084,2.614286184310913
115,2.596726978197694,16780992.8047631,88.71004486083984,237.42999267578125,2.614586114883423,0.0,-179.9996337890625,0.0,-0.0021328699127991513,0.0007968958915342084,2.614586114883423
116,2.602726978249848,16780993.0840411,88.71004486083984,237.42999267578125,2.6148760318756104,0.0,-179.9996337890625,0.0,-0.0021328699127991513,0.0007968958915342084,2.6148760318756104
117,2.608726978302002,16780993.3836591,88.71004486083984,237.42999267578125,2.6151556968688965,0.0,-179.9996337890625,0.0,-0.0021328699127991513,0.0007968958915342084,2.6151556968688965
118,2.614726978354156,16780993.6652512,88.71004486083984,237.42999267578125,2.6154251098632812,0.0,-179.9996337890625,0.0,-0.0021328699127991513,0.0007968958915342084,2.6154251098632812
119,2.62072697840631,16780993.9619159,88.71004486083984,237.42999267578125,2.61568546295166,0.0,-179.9996337890625,0.0,-0.0021328699127991513,0.0007968958915342084,2.61568546295166
120,2.626726978458464,16780994.2383876,88.71004486083984,237.42999267578125,2.615935802459717,0.0,-179.9996337890625,0.0,-0.0021328699127991513,0.0007968958915342084,2.615935802459717
121,2.632726978510618,16780994.5366952,88.71004486083984,237.42999267578125,2.616177558898926,0.0,-179.9996337890625,0.0,-0.0021328699127991513,0.0007968958915342084,2.616177558898926
122,2.6387269785627723,16780994.8188469,88.71004486083984,237.42999267578125,2.616410255432129,0.0,-179.9996337890625,0.0,-0.0021328699127991513,0.0007968958915342084,2.616410255432129
123,2.6447269786149263,16780995.1118364,88.71004486083984,237.42999267578125,2.6166343688964844,0.0,-179.9996337890625,0.0,-0.0021328699127991513,0.0007968958915342084,2.6166343688964844
124,2.6507269786670804,16780995.3921949,88.71004486083984,237.42999267578125,2.616849899291992,0.0,-179.9996337890625,0.0,-0.0021328699127991513,0.0007968958915342084,2.616849899291992
125,2.6567269787192345,16780995.6840619,88.71004486083984,237.42999267578125,2.6170573234558105,0.0,-179.9996337890625,0.0,-0.0021328699127991513,0.0007968958915342084,2.6170573234558105
126,2.6627269787713885,16780995.9944399,88.71004486083984,237.42999267578125,2.6172573566436768,0.0,-179.9996337890625,0.0,-0.0021328699127991513,0.0007968958915342084,2.6172573566436768
127,2.6687269788235426,16780996.2826716,88.71004486083984,237.42999267578125,2.6174492835998535,0.0,-179.9996337890625,0.0,-0.0021328699127991513,0.0007968958915342084,2.6174492835998535
128,2.6747269788756967,16780996.57548,88.71004486083984,237.42999267578125,2.617633581161499,0.0,-179.9996337890625,0.0,-0.0021328699127991513,0.0007968958915342084,2.617633581161499
129,2.6807269789278507,16780996.8646085,88.71004486083984,237.42999267578125,2.6178112030029297,0.0,-179.9996337890625,0.0,-0.0021328699127991513,0.0007968958915342084,2.6178112030029297
130,2.686726978980005,16780997.1650656,88.71004486083984,237.42999267578125,2.617981433868408,0.0,-179.9996337890625,0.0,-0.0021328699127991513,0.0007968958915342084,2.617981433868408
131,2.692726979032159,16780997.4512414,88.71004486083984,237.42999267578125,2.61814546585083,0.0,-179.9996337890625,0.0,-0.0021328699127991513,0.0007968958915342084,2.61814546585083
132,2.698726979084313,16780997.7523906,88.71004486083984,237.42999267578125,2.618302583694458,0.0,-179.9996337890625,0.0,-0.0021328699127991513,0.0007968958915342084,2.618302583694458
133,2.704726979136467,16780998.0359523,88.71004486083984,237.42999267578125,2.61845326423645,0.0,-179.9996337890625,0.0,-0.0021328699127991513,0.0007968958915342084,2.61845326423645
134,2.710726979188621,16780998.346828,88.71004486083984,237.42999267578125,2.618598222732544,0.0,-179.9996337890625,0.0,-0.0021328699127991513,0.0007968958915342084,2.618598222732544
135,2.716726979240775,16780998.6213679,88.71004486083984,237.42999267578125,2.6187374591827393,0.0,-179.9996337890625,0.0,-0.0021328699127991513,0.0007968958915342084,2.6187374591827393
136,2.722726979292929,16780998.9182942,88.71004486083984,237.42999267578125,2.618870735168457,0.0,-179.9996337890625,0.0,-0.0021328699127991513,0.0007968958915342084,2.618870735168457
137,2.7287269793450832,16780999.1949803,88.71004486083984,237.42999267578125,2.6189987659454346,0.0,-179.9996337890625,0.0,-0.0021328699127991513,0.0007968958915342084,2.6189987659454346
138,2.7347269793972373,16780999.4852666,88.71004486083984,237.42999267578125,2.6191213130950928,0.0,-179.9996337890625,0.0,-0.0021328699127991513,0.0007968958915342084,2.6191213130950928
139,2.7407269794493914,16780999.7654355,88.71004486083984,237.42999267578125,2.61923885345459,0.0,-179.9996337890625,0.0,-0.0021328699127991513,0.0007968958915342084,2.61923885345459
140,2.7467269795015454,16781000.0536614,88.71004486083984,237.42999267578125,2.619351863861084,0.0,-179.9996337890625,0.0,-0.0021328699127991513,0.0007968958915342084,2.619351863861084
141,2.7527269795536995,16781000.337844,88.71004486083984,237.42999267578125,2.619459867477417,0.0,-179.9996337890625,0.0,-0.0021328699127991513,0.0007968958915342084,2.619459867477417
142,2.7587269796058536,16781000.6504694,88.71004486083984,237.42999267578125,2.619563341140747,0.0,-179.9996337890625,0.0,-0.0021328699127991513,0.0007968958915342084,2.619563341140747
143,2.7647269796580076,16781000.9184286,88.71004486083984,237.42999267578125,2.6196625232696533,0.0,-179.9996337890625,0.0,-0.0021328699127991513,0.0007968958915342084,2.6196625232696533
144,2.7707269797101617,16781001.2010996,88.71004486083984,237.42999267578125,2.619757652282715,0.0,-179.9996337890625,0.0,-0.0021328699127991513,0.0007968958915342084,2.619757652282715
145,2.7767269797623158,16781001.4781157,88.71004486083984,237.42999267578125,2.6198484897613525,0.0,-179.9996337890625,0.0,-0.0021328699127991513,0.0007968958915342084,2.6198484897613525
146,2.78272697981447,16781001.7786995,88.71004486083984,237.42999267578125,2.6199355125427246,0.0,-179.9996337890625,0.0,-0.0021328699127991513,0.0007968958915342084,2.6199355125427246
147,2.788726979866624,16781002.0611401,88.71004486083984,237.42999267578125,2.6200191974639893,0.0,-179.9996337890625,0.0,-0.0021328699127991513,0.0007968958915342084,2.6200191974639893
148,2.794726979918778,16781002.3569507,88.71004486083984,237.42999267578125,2.620098829269409,0.0,-179.9996337890625,0.0,-0.0021328699127991513,0.0007968958915342084,2.620098829269409
149,2.800726979970932,16781002.6509529,88.71004486083984,237.42999267578125,2.620175361633301,0.0,-179.9996337890625,0.0,-0.0021328699127991513,0.0007968958915342084,2.620175361633301
150,2.806726980023086,16781002.9388987,88.71004486083984,237.42999267578125,2.620248317718506,0.0,-179.9996337890625,0.0,-0.0021328699127991513,0.0007968958915342084,2.620248317718506
151,2.81272698007524,16781003.2424446,88.71004486083984,237.42999267578125,2.620318651199341,0.0,-179.9996337890625,0.0,-0.0021328699127991513,0.0007968958915342084,2.620318651199341
152,2.818726980127394,16781003.5217444,88.71004486083984,237.42999267578125,2.6203854084014893,0.0,-179.9996337890625,0.0,-0.0021328699127991513,0.0007968958915342084,2.6203854084014893
153,2.8247269801795483,16781003.8145027,88.71004486083984,237.42999267578125,2.6204490661621094,0.0,-179.9996337890625,0.0,-0.0021328699127991513,0.0007968958915342084,2.6204490661621094
154,2.8307269802317023,16781004.1033426,88.71004486083984,237.42999267578125,2.6205105781555176,0.0,-179.9996337890625,0.0,-0.0021328699127991513,0.0007968958915342084,2.6205105781555176
155,2.8367269802838564,16781004.4038613,88.71004486083984,237.42999267578125,2.6205689907073975,0.0,-179.9996337890625,0.0,-0.0021328699127991513,0.0007968958915342084,2.6205689907073975
156,2.8427269803360105,16781004.6819249,88.71004486083984,237.42999267578125,2.6206250190734863,0.0,-179.9996337890625,0.0,-0.0021328699127991513,0.0007968958915342084,2.6206250190734863
157,2.8487269803881645,16781004.9883422,88.71004486083984,237.42999267578125,2.620678424835205,0.0,-179.9996337890625,0.0,-0.0021328699127991513,0.0007968958915342084,2.620678424835205
158,2.8547269804403186,16781005.2656484,88.71004486083984,237.42999267578125,2.620729684829712,0.0,-179.9996337890625,0.0,-0.0021328699127991513,0.0007968958915342084,2.620729684829712
159,2.8607269804924726,16781005.5547507,88.71004486083984,237.42999267578125,2.6207785606384277,0.0,-179.9996337890625,0.0,-0.0021328699127991513,0.0007968958915342084,2.6207785606384277
160,2.8667269805446267,16781005.8314263,88.71004486083984,237.42999267578125,2.6208250522613525,0.0,-179.9996337890625,0.0,-0.0021328699127991513,0.0007968958915342084,2.6208250522613525
161,2.8727269805967808,16781006.1272461,88.71004486083984,237.42999267578125,2.6208696365356445,0.0,-179.9996337890625,0.0,-0.0021328699127991513,0.0007968958915342084,2.6208696365356445
162,2.878726980648935,16781006.3999758,88.71004486083984,237.42999267578125,2.6209123134613037,0.0,-179.9996337890625,0.0,-0.0021328699127991513,0.0007968958915342084,2.6209123134613037
163,2.884726980701089,16781006.6979634,88.71004486083984,237.42999267578125,2.62095308303833,0.0,-179.9996337890625,0.0,-0.0021328699127991513,0.0007968958915342084,2.62095308303833
164,2.890726980753243,16781006.9851213,88.71004486083984,237.42999267578125,2.6209917068481445,0.0,-179.9996337890625,0.0,-0.0021328699127991513,0.0007968958915342084,2.6209917068481445
165,2.896726980805397,16781007.2897175,88.71004486083984,237.42999267578125,2.6210289001464844,0.0,-179.9996337890625,0.0,-0.0021328699127991513,0.0007968958915342084,2.6210289001464844
166,2.902726980857551,16781007.5789482,88.71004486083984,237.42999267578125,2.6210644245147705,0.0,-179.9996337890625,0.0,-0.0021328699127991513,0.0007968958915342084,2.6210644245147705
167,2.908726980909705,16781007.8706336,88.71004486083984,237.42999267578125,2.621098279953003,0.0,-179.9996337890625,0.0,-0.0021328699127991513,0.0007968958915342084,2.621098279953003
168,2.9147269809618592,16781008.1725755,88.71004486083984,237.42999267578125,2.6211307048797607,0.0,-179.9996337890625,0.0,-0.0021328699127991513,0.0007968958915342084,2.6211307048797607
169,2.9207269810140133,16781008.4581693,88.71004486083984,237.42999267578125,2.621161460876465,0.0,-179.9996337890625,0.0,-0.0021328699127991513,0.0007968958915342084,2.621161460876465
170,2.9267269810661674,16781008.7611694,88.71004486083984,237.42999267578125,2.6211910247802734,0.0,-179.9996337890625,0.0,-0.0021328699127991513,0.0007968958915342084,2.6211910247802734
171,2.9327269811183214,16781009.0470777,88.71004486083984,237.42999267578125,2.6212191581726074,0.0,-179.9996337890625,0.0,-0.0021328699127991513,0.0007968958915342084,2.6212191581726074
172,2.9387269811704755,16781009.3610102,88.71004486083984,237.42999267578125,2.621245861053467,0.0,-179.9996337890625,0.0,-0.0021328699127991513,0.0007968958915342084,2.621245861053467
173,2.9447269812226295,16781009.6534714,88.71004486083984,237.42999267578125,2.6212713718414307,0.0,-179.9996337890625,0.0,-0.0021328699127991513,0.0007968958915342084,2.6212713718414307
174,2.9507269812747836,16781009.9625978,88.71004486083984,237.42999267578125,2.621295690536499,0.0,-179.9996337890625,0.0,-0.0021328699127991513,0.0007968958915342084,2.621295690536499
175,2.9567269813269377,16781010.2540727,88.71004486083984,237.42999267578125,2.62131929397583,0.0,-179.9996337890625,0.0,-0.0021328699127991513,0.0007968958915342084,2.62131929397583
176,2.9627269813790917,16781010.584173,88.71004486083984,237.42999267578125,2.6213414669036865,0.0,-179.9996337890625,0.0,-0.0021328699127991513,0.0007968958915342084,2.6213414669036865
177,2.968726981431246,16781010.8741102,88.71004486083984,237.42999267578125,2.6213624477386475,0.0,-179.9996337890625,0.0,-0.0021328699127991513,0.0007968958915342084,2.6213624477386475
178,2.9747269814834,16781011.1675179,88.71004486083984,237.42999267578125,2.62138295173645,0.0,-179.9996337890625,0.0,-0.0021328699127991513,0.0007968958915342084,2.62138295173645
179,2.980726981535554,16781011.4580443,88.71004486083984,237.42999267578125,2.6214022636413574,0.0,-179.9996337890625,0.0,-0.0021328699127991513,0.0007968958915342084,2.6214022636413574
180,2.986726981587708,16781011.7668851,88.71004486083984,237.42999267578125,2.6214206218719482,0.0,-179.9996337890625,0.0,-0.0021328699127991513,0.0007968958915342084,2.6214206218719482
181,2.992726981639862,16781012.0707119,88.71004486083984,237.42999267578125,2.6214380264282227,0.0,-179.9996337890625,0.0,-0.0021328699127991513,0.0007968958915342084,2.6214380264282227
182,2.998726981692016,16781012.3645515,88.71004486083984,237.42999267578125,2.6214547157287598,0.0,-179.9996337890625,0.0,-0.0021328699127991513,0.0007968958915342084,2.6214547157287598
183,3.00472698174417,16781012.673248,88.71004486083984,237.42999267578125,2.6214709281921387,0.0,-179.9996337890625,0.0,-0.0021328699127991513,0.0007968958915342084,2.6214709281921387
184,3.0107269817963243,16781012.9579992,88.71004486083984,237.42999267578125,2.621485948562622,0.0,-179.9996337890625,0.0,-0.0021328699127991513,0.0007968958915342084,2.621485948562622
185,3.0167269818484783,16781013.2603563,88.71004486083984,237.42999267578125,2.6215004920959473,0.0,-179.9996337890625,0.0,-0.0021328699127991513,0.0007968958915342084,2.6215004920959473
186,3.0227269819006324,16781013.5529588,88.71004486083984,237.42999267578125,2.621514320373535,0.0,-179.9996337890625,0.0,-0.0021328699127991513,0.0007968958915342084,2.621514320373535
187,3.0287269819527864,16781013.8501888,88.71004486083984,237.42999267578125,2.6215274333953857,0.0,-179.9996337890625,0.0,-0.0021328699127991513,0.0007968958915342084,2.6215274333953857
188,3.0347269820049405,16781014.1734878,88.71004486083984,237.42999267578125,2.621539831161499,0.0,-179.9996337890625,0.0,-0.0021328699127991513,0.0007968958915342084,2.621539831161499
189,3.0407269820570946,16781014.5088845,88.71004486083984,237.42999267578125,2.621551990509033,0.0,-179.9996337890625,0.0,-0.0021328699127991513,0.0007968958915342084,2.621551990509033
190,3.0467269821092486,16781014.8883571,88.71004486083984,237.42999267578125,2.62156343460083,0.0,-179.9996337890625,0.0,-0.0021328699127991513,0.0007968958915342084,2.62156343460083
191,3.0527269821614027,16781015.1956278,88.71004486083984,237.42999267578125,2.6215744018554688,0.0,-179.9996337890625,0.0,-0.0021328699127991513,0.0007968958915342084,2.6215744018554688
192,3.0587269822135568,16781015.5084643,88.71004486083984,237.42999267578125,2.621584415435791,0.0,-179.9996337890625,0.0,-0.0021328699127991513,0.0007968958915342084,2.621584415435791
193,3.064726982265711,16781015.8113951,88.71004486083984,237.42999267578125,2.6215944290161133,0.0,-179.9996337890625,0.0,-0.0021328699127991513,0.0007968958915342084,2.6215944290161133
194,3.070726982317865,16781016.1100274,88.71004486083984,237.42999267578125,2.6216039657592773,0.0,-179.9996337890625,0.0,-0.0021328699127991513,0.0007968958915342084,2.6216039657592773
195,3.076726982370019,16781016.4069367,88.71004486083984,237.42999267578125,2.621612787246704,0.0,-179.9996337890625,0.0,-0.0021328699127991513,0.0007968958915342084,2.621612787246704
196,3.082726982422173,16781016.6873675,88.71004486083984,237.42999267578125,2.621612787246704,0.0,-179.9996337890625,0.0,-0.0021328699127991513,0.0007968958915342084,2.621612787246704
197,3.088726982474327,16781016.9909919,88.71004486083984,237.42999267578125,2.6216137409210205,0.0,-179.9996337890625,0.0,-0.0021328699127991513,0.0007968958915342084,2.6216137409210205
198,3.094726982526481,16781017.2793276,88.71004486083984,237.42999267578125,2.6216156482696533,0.0,-179.9996337890625,0.0,-0.0021328699127991513,0.0007968958915342084,2.6216156482696533
199,3.100726982578635,16781017.5904361,88.71004486083984,237.42999267578125,2.621617317199707,0.0,-179.9996337890625,0.0,-0.0021328699127991513,0.0007968958915342084,2.621617317199707
200,3.1067269826307893,16781017.8831027,88.71004486083984,237.42999267578125,2.621619462966919,0.0,-179.9996337890625,0.0,-0.0021328699127991513,0.0007968958915342084,2.621619462966919
201,3.1127269826829433,16781018.1964848,88.71004486083984,237.42999267578125,2.62162184715271,0.0,-179.9996337890625,0.0,-0.0021328699127991513,0.0007968958915342084,2.62162184715271
202,3.1187269827350974,16781018.4882099,88.71004486083984,237.42999267578125,2.621624708175659,0.0,-179.9996337890625,0.0,-0.0021328699127991513,0.0007968958915342084,2.621624708175659
203,3.1247269827872515,16781018.7888684,88.71004486083984,237.42999267578125,2.6216278076171875,0.0,-179.9996337890625,0.0,-0.0021328699127991513,0.0007968958915342084,2.6216278076171875
204,3.1307269828394055,16781019.0836646,88.71004486083984,237.42999267578125,2.621630907058716,0.0,-179.9996337890625,0.0,-0.0021328699127991513,0.0007968958915342084,2.621630907058716
205,3.1367269828915596,16781019.3675015,88.71004486083984,237.42999267578125,2.6216342449188232,0.0,-179.9996337890625,0.0,-0.0021328699127991513,0.0007968958915342084,2.6216342449188232
206,3.1427269829437137,16781019.6586556,88.71004486083984,237.42999267578125,2.6216375827789307,0.0,-179.9996337890625,0.0,-0.0021328699127991513,0.0007968958915342084,2.6216375827789307
207,3.1487269829958677,16781019.9473296,88.71004486083984,237.42999267578125,2.621640920639038,0.0,-179.9996337890625,0.0,-0.0021328699127991513,0.0007968958915342084,2.621640920639038
208,3.154726983048022,16781020.2517323,88.71004486083984,237.42999267578125,2.6216444969177246,0.0,-179.9996337890625,0.0,-0.0021328699127991513,0.0007968958915342084,2.6216444969177246
209,3.160726983100176,16781020.5379361,88.71004486083984,237.42999267578125,2.621647834777832,0.0,-179.9996337890625,0.0,-0.0021328699127991513,0.0007968958915342084,2.621647834777832
210,3.16672698315233,16781020.8299105,88.71004486083984,237.42999267578125,2.6216516494750977,0.0,-179.9996337890625,0.0,-0.0021328699127991513,0.0007968958915342084,2.6216516494750977
211,3.172726983204484,16781021.115296,88.71004486083984,237.42999267578125,2.621655225753784,0.0,-179.9996337890625,0.0,-0.0021328699127991513,0.0007968958915342084,2.621655225753784
212,3.178726983256638,16781021.4192866,88.71004486083984,237.42999267578125,2.6216588020324707,0.0,-179.9996337890625,0.0,-0.0021328699127991513,0.0007968958915342084,2.6216588020324707
213,3.184726983308792,16781021.7111744,88.71004486083984,237.42999267578125,2.6216626167297363,0.0,-179.9996337890625,0.0,-0.0021328699127991513,0.0007968958915342084,2.6216626167297363
214,3.190726983360946,16781022.0145121,88.71004486083984,237.42999267578125,2.621666193008423,0.0,-179.9996337890625,0.0,-0.0021328699127991513,0.0007968958915342084,2.621666193008423
215,3.1967269834131002,16781022.2905659,88.71004486083984,237.42999267578125,2.6216697692871094,0.0,-179.9996337890625,0.0,-0.0021328699127991513,0.0007968958915342084,2.6216697692871094
216,3.2027269834652543,16781022.5943334,88.71004486083984,237.42999267578125,2.621673583984375,0.0,-179.9996337890625,0.0,-0.0021328699127991513,0.0007968958915342084,2.621673583984375
217,3.2087269835174084,16781022.8701273,88.71004486083984,237.42999267578125,2.6216771602630615,0.0,-179.9996337890625,0.0,-0.0021328699127991513,0.0007968958915342084,2.6216771602630615
218,3.2147269835695624,16781023.1692417,88.71004486083984,237.42999267578125,2.621680498123169,0.0,-179.9996337890625,0.0,-0.0021328699127991513,0.0007968958915342084,2.621680498123169
219,3.2207269836217165,16781023.4506431,88.71004486083984,237.42999267578125,2.6216843128204346,0.0,-179.9996337890625,0.0,-0.0021328699127991513,0.0007968958915342084,2.6216843128204346
220,3.2267269836738706,16781023.7548133,88.71004486083984,237.42999267578125,2.621687650680542,0.0,-179.9996337890625,0.0,-0.0021328699127991513,0.0007968958915342084,2.621687650680542
221,3.2327269837260246,16781024.050075,88.71004486083984,237.42999267578125,2.6216909885406494,0.0,-179.9996337890625,0.0,-0.0021328699127991513,0.0007968958915342084,2.6216909885406494
222,3.2387269837781787,16781024.3389569,88.71004486083984,237.42999267578125,2.621694326400757,0.0,-179.9996337890625,0.0,-0.0021328699127991513,0.0007968958915342084,2.621694326400757
223,3.2447269838303328,16781024.6347062,88.71004486083984,237.42999267578125,2.621697425842285,0.0,-179.9996337890625,0.0,-0.0021328699127991513,0.0007968958915342084,2.621697425842285
224,3.250726983882487,16781024.9211923,88.71004486083984,237.42999267578125,2.6217007637023926,0.0,-179.9996337890625,0.0,-0.0021328699127991513,0.0007968958915342084,2.6217007637023926
225,3.256726983934641,16781025.2122455,88.71004486083984,237.42999267578125,2.621703624725342,0.0,-179.9996337890625,0.0,-0.0021328699127991513,0.0007968958915342084,2.621703624725342
226,3.262726983986795,16781025.4946205,88.71004486083984,237.42999267578125,2.62170672416687,0.0,-179.9996337890625,0.0,-0.0021328699127991513,0.0007968958915342084,2.62170672416687
227,3.268726984038949,16781025.8077948,88.71004486083984,237.42999267578125,2.6217095851898193,0.0,-179.9996337890625,0.0,-0.0021328699127991513,0.0007968958915342084,2.6217095851898193
228,3.274726984091103,16781026.0894003,88.71004486083984,237.42999267578125,2.6217126846313477,0.0,-179.9996337890625,0.0,-0.0021328699127991513,0.0007968958915342084,2.6217126846313477
229,3.280726984143257,16781026.3912714,88.71004486083984,237.42999267578125,2.6217153072357178,0.0,-179.9996337890625,0.0,-0.0021328699127991513,0.0007968958915342084,2.6217153072357178
230,3.286726984195411,16781026.6706926,88.71004486083984,237.42999267578125,2.621718168258667,0.0,-179.9996337890625,0.0,-0.0021328699127991513,0.0007968958915342084,2.621718168258667
231,3.2927269842475653,16781026.9708495,88.71004486083984,237.42999267578125,2.621720552444458,0.0,-179.9996337890625,0.0,-0.0021328699127991513,0.0007968958915342084,2.621720552444458
232,3.2987269842997193,16781027.2626889,88.71004486083984,237.42999267578125,2.621723175048828,0.0,-179.9996337890625,0.0,-0.0021328699127991513,0.0007968958915342084,2.621723175048828
233,3.3047269843518734,16781027.5749426,88.71004486083984,237.42999267578125,2.6217257976531982,0.0,-179.9996337890625,0.0,-0.0021328699127991513,0.0007968958915342084,2.6217257976531982
234,3.3107269844040275,16781027.8519761,88.71004486083984,237.42999267578125,2.6217281818389893,0.0,-179.9996337890625,0.0,-0.0021328699127991513,0.0007968958915342084,2.6217281818389893
235,3.3167269844561815,16781028.1211632,88.71004486083984,237.42999267578125,2.621730327606201,0.0,-179.9996337890625,0.0,-0.0021328699127991513,0.0007968958915342084,2.621730327606201
236,3.3227269845083356,16781028.3872993,88.71004486083984,237.42999267578125,2.621732711791992,0.0,-179.9996337890625,0.0,-0.0021328699127991513,0.0007968958915342084,2.621732711791992
237,3.3287269845604897,16781028.6775437,88.71004486083984,237.42999267578125,2.621734857559204,0.0,-179.9996337890625,0.0,-0.0021328699127991513,0.0007968958915342084,2.621734857559204
238,3.3347269846126437,16781028.9545449,88.71004486083984,237.42999267578125,2.621737003326416,0.0,-179.9996337890625,0.0,-0.0021328699127991513,0.0007968958915342084,2.621737003326416
239,3.340726984664798,16781029.2392052,88.71004486083984,237.42999267578125,2.621738910675049,0.0,-179.9996337890625,0.0,-0.0021328699127991513,0.0007968958915342084,2.621738910675049
240,3.346726984716952,16781029.5189589,88.71004486083984,237.42999267578125,2.6217410564422607,0.0,-179.9996337890625,0.0,-0.0021328699127991513,0.0007968958915342084,2.6217410564422607
241,3.352726984769106,16781029.8069679,88.71004486083984,237.42999267578125,2.6217427253723145,0.0,-179.9996337890625,0.0,-0.0021328699127991513,0.0007968958915342084,2.6217427253723145
242,3.35872698482126,16781030.0910681,88.71004486083984,237.42999267578125,2.6217446327209473,0.0,-179.9996337890625,0.0,-0.0021328699127991513,0.0007968958915342084,2.6217446327209473
243,3.364726984873414,16781030.3815308,88.71004486083984,237.42999267578125,2.62174654006958,0.0,-179.9996337890625,0.0,-0.0021328699127991513,0.0007968958915342084,2.62174654006958
244,3.370726984925568,16781030.6836156,88.71004486083984,237.42999267578125,2.621748208999634,0.0,-179.9996337890625,0.0,-0.0021328699127991513,0.0007968958915342084,2.621748208999634
245,3.376726984977722,16781030.9832806,88.71004486083984,237.42999267578125,2.6217498779296875,0.0,-179.9996337890625,0.0,-0.0021328699127991513,0.0007968958915342084,2.6217498779296875
246,3.3827269850298762,16781031.2830755,88.71004486083984,237.42999267578125,2.621751308441162,0.0,-179.9996337890625,0.0,-0.0021328699127991513,0.0007968958915342084,2.621751308441162
247,3.3887269850820303,16781031.5618148,88.71004486083984,237.42999267578125,2.621752977371216,0.0,-179.9996337890625,0.0,-0.0021328699127991513,0.0007968958915342084,2.621752977371216
248,3.3947269851341844,16781031.8629507,88.71004486083984,237.42999267578125,2.6217544078826904,0.0,-179.9996337890625,0.0,-0.0021328699127991513,0.0007968958915342084,2.6217544078826904
249,3.4007269851863384,16781032.1450613,88.71004486083984,237.42999267578125,2.621755838394165,0.0,-179.9996337890625,0.0,-0.0021328699127991513,0.0007968958915342084,2.621755838394165
250,3.4067269852384925,16781032.4501794,88.71004486083984,237.42999267578125,2.6217570304870605,0.0,-179.9996337890625,0.0,-0.0021328699127991513,0.0007968958915342084,2.6217570304870605
251,3.4127269852906466,16781032.7278827,88.71004486083984,237.42999267578125,2.6217586994171143,0.0,-179.9996337890625,0.0,-0.0021328699127991513,0.0007968958915342084,2.6217586994171143
252,3.4187269853428006,16781033.0361229,88.71004486083984,237.42999267578125,2.6217598915100098,0.0,-179.9996337890625,0.0,-0.0021328699127991513,0.0007968958915342084,2.6217598915100098
253,3.4247269853949547,16781033.3181172,88.71004486083984,237.42999267578125,2.6217610836029053,0.0,-179.9996337890625,0.0,-0.0021328699127991513,0.0007968958915342084,2.6217610836029053
254,3.4307269854471087,16781033.6418375,88.71004486083984,237.42999267578125,2.621762275695801,0.0,-179.9996337890625,0.0,-0.0021328699127991513,0.0007968958915342084,2.621762275695801
255,3.436726985499263,16781033.9234651,88.71004486083984,237.42999267578125,2.621763229370117,0.0,-179.9996337890625,0.0,-0.0021328699127991513,0.0007968958915342084,2.621763229370117
256,3.442726985551417,16781034.2140427,88.71004486083984,237.42999267578125,2.6217644214630127,0.0,-179.9996337890625,0.0,-0.0021328699127991513,0.0007968958915342084,2.6217644214630127
257,3.448726985603571,16781034.4971903,88.71004486083984,237.42999267578125,2.621765375137329,0.0,-179.9996337890625,0.0,-0.0021328699127991513,0.0007968958915342084,2.621765375137329
258,3.454726985655725,16781034.7945025,88.71004486083984,237.42999267578125,2.621765375137329,0.0,-179.9996337890625,0.0,-0.0021328699127991513,0.0007968958915342084,2.621765375137329
259,3.460726985707879,16781035.0853992,88.71004486083984,237.42999267578125,2.621767520904541,0.0,-179.9996337890625,0.0,-0.0021328699127991513,0.0007968958915342084,2.621767520904541
260,3.466726985760033,16781035.3701059,88.71004486083984,237.42999267578125,2.621767520904541,0.0,-179.9996337890625,0.0,-0.0021328699127991513,0.0007968958915342084,2.621767520904541
261,3.472726985812187,16781035.6746048,88.71004486083984,237.42999267578125,2.621769428253174,0.0,-179.9996337890625,0.0,-0.0021328699127991513,0.0007968958915342084,2.621769428253174
262,3.4787269858643413,16781035.9595673,88.71004486083984,237.42999267578125,2.621769428253174,0.0,-179.9996337890625,0.0,-0.0021328699127991513,0.0007968958915342084,2.621769428253174
263,3.4847269859164953,16781036.2534878,88.71004486083984,237.42999267578125,2.6217708587646484,0.0,-179.9996337890625,0.0,-0.0021328699127991513,0.0007968958915342084,2.6217708587646484
264,3.4907269859686494,16781036.5303695,88.71004486083984,237.42999267578125,2.6217708587646484,0.0,-179.9996337890625,0.0,-0.0021328699127991513,0.0007968958915342084,2.6217708587646484
265,3.4967269860208035,16781036.8305124,88.71004486083984,237.42999267578125,2.6217708587646484,0.0,-179.9996337890625,0.0,-0.0021328699127991513,0.0007968958915342084,2.6217708587646484
266,3.5027269860729575,16781037.1060189,88.71004486083984,237.42999267578125,2.6217708587646484,0.0,-179.9996337890625,0.0,-0.0021328699127991513,0.0007968958915342084,2.6217708587646484
267,3.5087269861251116,16781037.4047729,88.71004486083984,237.42999267578125,2.6217708587646484,0.0,-179.9996337890625,0.0,-0.0021328699127991513,0.0007968958915342084,2.6217708587646484
268,3.5147269861772656,16781037.6864838,88.71004486083984,237.42999267578125,2.6217708587646484,0.0,-179.9996337890625,0.0,-0.0021328699127991513,0.0007968958915342084,2.6217708587646484
269,3.5207269862294197,16781037.9842559,88.71004486083984,237.42999267578125,2.6217708587646484,0.0,-179.9996337890625,0.0,-0.0021328699127991513,0.0007968958915342084,2.6217708587646484
270,3.5267269862815738,16781038.2613748,88.71004486083984,237.42999267578125,2.621772050857544,0.0,-179.9996337890625,0.0,-0.0021328699127991513,0.0007968958915342084,2.621772050857544
271,3.532726986333728,16781038.5577543,88.71004486083984,237.42999267578125,2.621772050857544,0.0,-179.9996337890625,0.0,-0.0021328699127991513,0.0007968958915342084,2.621772050857544
272,3.538726986385882,16781038.8410302,88.71004486083984,237.42999267578125,2.621772050857544,0.0,-179.9996337890625,0.0,-0.0021328699127991513,0.0007968958915342084,2.621772050857544
273,3.544726986438036,16781039.1440967,88.71004486083984,237.42999267578125,2.621772050857544,0.0,-179.9996337890625,0.0,-0.0021328699127991513,0.0007968958915342084,2.621772050857544
274,3.55072698649019,16781039.423167,88.71004486083984,237.42999267578125,2.6217732429504395,0.0,-179.9996337890625,0.0,-0.0021328699127991513,0.0007968958915342084,2.6217732429504395
275,3.556726986542344,16781039.7239565,88.71004486083984,237.42999267578125,2.6217732429504395,0.0,-179.9996337890625,0.0,-0.0021328699127991513,0.0007968958915342084,2.6217732429504395
276,3.562726986594498,16781040.0081409,88.71004486083984,237.42999267578125,2.6217732429504395,0.0,-179.9996337890625,0.0,-0.0021328699127991513,0.0007968958915342084,2.6217732429504395
277,3.568726986646652,16781040.32016,88.71004486083984,237.42999267578125,2.621774196624756,0.0,-179.9996337890625,0.0,-0.0021328699127991513,0.0007968958915342084,2.621774196624756
278,3.5747269866988063,16781040.6154847,88.71004486083984,237.42999267578125,2.621774196624756,0.0,-179.9996337890625,0.0,-0.0021328699127991513,0.0007968958915342084,2.621774196624756
279,3.5807269867509604,16781040.89349,88.71004486083984,237.42999267578125,2.621774196624756,0.0,-179.9996337890625,0.0,-0.0021328699127991513,0.0007968958915342084,2.621774196624756
280,3.5867269868031144,16781041.1914713,88.71004486083984,237.42999267578125,2.6217753887176514,0.0,-179.9996337890625,0.0,-0.0021328699127991513,0.0007968958915342084,2.6217753887176514
281,3.5927269868552685,16781041.4714732,88.71004486083984,237.42999267578125,2.6217753887176514,0.0,-179.9996337890625,0.0,-0.0021328699127991513,0.0007968958915342084,2.6217753887176514
282,3.5987269869074225,16781041.768416,88.71004486083984,237.42999267578125,2.6217753887176514,0.0,-179.9996337890625,0.0,-0.0021328699127991513,0.0007968958915342084,2.6217753887176514
283,3.6047269869595766,16781042.0510903,88.71004486083984,237.42999267578125,2.621776580810547,0.0,-179.9996337890625,0.0,-0.0021328699127991513,0.0007968958915342084,2.621776580810547
284,3.6107269870117307,16781042.3533186,88.71004486083984,237.42999267578125,2.621776580810547,0.0,-179.9996337890625,0.0,-0.0021328699127991513,0.0007968958915342084,2.621776580810547
285,3.6167269870638847,16781042.6364489,88.71004486083984,237.42999267578125,2.621776580810547,0.0,-179.9996337890625,0.0,-0.0021328699127991513,0.0007968958915342084,2.621776580810547
286,3.622726987116039,16781042.9459822,88.71004486083984,237.42999267578125,2.6217775344848633,0.0,-179.9996337890625,0.0,-0.0021328699127991513,0.0007968958915342084,2.6217775344848633
287,3.628726987168193,16781043.2236189,88.71004486083984,237.42999267578125,2.6217775344848633,0.0,-179.9996337890625,0.0,-0.0021328699127991513,0.0007968958915342084,2.6217775344848633
288,3.634726987220347,16781043.52898,88.71004486083984,237.42999267578125,2.6217775344848633,0.0,-179.9996337890625,0.0,-0.0021328699127991513,0.0007968958915342084,2.6217775344848633
289,3.640726987272501,16781043.8133971,88.71004486083984,237.42999267578125,2.621778726577759,0.0,-179.9996337890625,0.0,-0.0021328699127991513,0.0007968958915342084,2.621778726577759
290,3.646726987324655,16781044.1115472,88.71004486083984,237.42999267578125,2.621778726577759,0.0,-179.9996337890625,0.0,-0.0021328699127991513,0.0007968958915342084,2.621778726577759
291,3.652726987376809,16781044.3888802,88.71004486083984,237.42999267578125,2.621778726577759,0.0,-179.9996337890625,0.0,-0.0021328699127991513,0.0007968958915342084,2.621778726577759
292,3.658726987428963,16781044.6845991,88.71004486083984,237.42999267578125,2.621778726577759,0.0,-179.9996337890625,0.0,-0.0021328699127991513,0.0007968958915342084,2.621778726577759
293,3.6647269874811172,16781044.9674621,88.71004486083984,237.42999267578125,2.6217799186706543,0.0,-179.9996337890625,0.0,-0.0021328699127991513,0.0007968958915342084,2.6217799186706543
294,3.6707269875332713,16781045.2523526,88.71004486083984,237.42999267578125,2.6217799186706543,0.0,-179.9996337890625,0.0,-0.0021328699127991513,0.0007968958915342084,2.6217799186706543
295,3.6767269875854254,16781045.5414837,88.71004486083984,237.42999267578125,2.6217799186706543,0.0,-179.9996337890625,0.0,-0.0021328699127991513,0.0007968958915342084,2.6217799186706543
296,3.6827269876375794,16781045.8423892,88.71004486083984,237.42999267578125,2.6217799186706543,0.0,-179.9996337890625,0.0,-0.0021328699127991513,0.0007968958915342084,2.6217799186706543
297,3.6887269876897335,16781046.1322597,88.71004486083984,237.42999267578125,2.621781349182129,0.0,-179.9996337890625,0.0,-0.0021328699127991513,0.0007968958915342084,2.621781349182129
298,3.6947269877418876,16781046.4212182,88.71004486083984,237.42999267578125,2.621781349182129,0.0,-179.9996337890625,0.0,-0.0021328699127991513,0.0007968958915342084,2.621781349182129
299,3.7007269877940416,16781046.7308215,88.71004486083984,237.42999267578125,2.621781349182129,0.0,-179.9996337890625,0.0,-0.0021328699127991513,0.0007968958915342084,2.621781349182129
300,3.7067269878461957,16781047.0176784,88.71004486083984,237.42999267578125,2.621781349182129,0.0,-179.9996337890625,0.0,-0.0021328699127991513,0.0007968958915342084,2.621781349182129
301,3.7127269878983498,16781047.3229209,88.71004486083984,237.42999267578125,2.621782064437866,0.0,-179.9996337890625,0.0,-0.0021328699127991513,0.0007968958915342084,2.621782064437866
302,3.718726987950504,16781047.6102731,88.71004486083984,237.42999267578125,2.621782064437866,0.0,-179.9996337890625,0.0,-0.0021328699127991513,0.0007968958915342084,2.621782064437866
303,3.724726988002658,16781047.9114386,88.71004486083984,237.42999267578125,2.621782064437866,0.0,-179.9996337890625,0.0,-0.0021328699127991513,0.0007968958915342084,2.621782064437866
304,3.730726988054812,16781048.1955708,88.71004486083984,237.42999267578125,2.621782064437866,0.0,-179.9996337890625,0.0,-0.0021328699127991513,0.0007968958915342084,2.621782064437866
305,3.736726988106966,16781048.5026207,88.71004486083984,237.42999267578125,2.621782064437866,0.0,-179.9996337890625,0.0,-0.0021328699127991513,0.0007968958915342084,2.621782064437866
306,3.74272698815912,16781048.7862316,88.71004486083984,237.42999267578125,2.621783494949341,0.0,-179.9996337890625,0.0,-0.0021328699127991513,0.0007968958915342084,2.621783494949341
307,3.748726988211274,16781049.0772869,88.71004486083984,237.42999267578125,2.621783494949341,0.0,-179.9996337890625,0.0,-0.0021328699127991513,0.0007968958915342084,2.621783494949341
308,3.754726988263428,16781049.3717286,88.71004486083984,237.42999267578125,2.621783494949341,0.0,-179.9996337890625,0.0,-0.0021328699127991513,0.0007968958915342084,2.621783494949341
309,3.7607269883155823,16781049.6777444,88.71004486083984,237.42999267578125,2.621783494949341,0.0,-179.9996337890625,0.0,-0.0021328699127991513,0.0007968958915342084,2.621783494949341
310,3.7667269883677363,16781049.9720669,88.71004486083984,237.42999267578125,2.621783494949341,0.0,-179.9996337890625,0.0,-0.0021328699127991513,0.0007968958915342084,2.621783494949341
311,3.7727269884198904,16781050.4345382,88.71004486083984,237.42999267578125,2.621783494949341,0.0,-179.9996337890625,0.0,-0.0021328699127991513,0.0007968958915342084,2.621783494949341
312,3.7787269884720445,16781050.7941073,88.71004486083984,237.42999267578125,2.6217846870422363,0.0,-179.9996337890625,0.0,-0.0021328699127991513,0.0007968958915342084,2.6217846870422363
313,3.7847269885241985,16781051.1296791,88.71004486083984,237.42999267578125,2.6217846870422363,0.0,-179.9996337890625,0.0,-0.0021328699127991513,0.0007968958915342084,2.6217846870422363
314,3.7907269885763526,16781051.4516701,88.71004486083984,237.42999267578125,2.6217846870422363,0.0,-179.9996337890625,0.0,-0.0021328699127991513,0.0007968958915342084,2.6217846870422363
315,3.7967269886285067,16781051.777816,88.71004486083984,237.42999267578125,2.6217846870422363,0.0,-179.9996337890625,0.0,-0.0021328699127991513,0.0007968958915342084,2.6217846870422363
316,3.8027269886806607,16781052.0846635,88.71004486083984,237.42999267578125,2.6217846870422363,0.0,-179.9996337890625,0.0,-0.0021328699127991513,0.0007968958915342084,2.6217846870422363
317,3.808726988732815,16781052.395382,88.71004486083984,237.42999267578125,2.6217846870422363,0.0,-179.9996337890625,0.0,-0.0021328699127991513,0.0007968958915342084,2.6217846870422363
318,3.814726988784969,16781052.7128955,88.71004486083984,237.42999267578125,2.6217846870422363,0.0,-179.9996337890625,0.0,-0.0021328699127991513,0.0007968958915342084,2.6217846870422363
319,3.820726988837123,16781053.0087927,88.71004486083984,237.42999267578125,2.6217856407165527,0.0,-179.9996337890625,0.0,-0.0021328699127991513,0.0007968958915342084,2.6217856407165527
320,3.826726988889277,16781053.3200894,88.71004486083984,237.42999267578125,2.6217856407165527,0.0,-179.9996337890625,0.0,-0.0021328699127991513,0.0007968958915342084,2.6217856407165527
321,3.832726988941431,16781053.6374015,88.71004486083984,237.42999267578125,2.6217856407165527,0.0,-179.9996337890625,0.0,-0.0021328699127991513,0.0007968958915342084,2.6217856407165527
322,3.838726988993585,16781053.9689024,88.71004486083984,237.42999267578125,2.6217856407165527,0.0,-179.9996337890625,0.0,-0.0021328699127991513,0.0007968958915342084,2.6217856407165527
323,3.844726989045739,16781054.3020739,88.71004486083984,237.42999267578125,2.6217856407165527,0.0,-179.9996337890625,0.0,-0.0021328699127991513,0.0007968958915342084,2.6217856407165527
324,3.8507269890978932,16781054.717914,88.71004486083984,237.42999267578125,2.6217856407165527,0.0,-179.9996337890625,0.0,-0.0021328699127991513,0.0007968958915342084,2.6217856407165527
325,3.8567269891500473,16781055.0585661,88.71004486083984,237.42999267578125,2.6217856407165527,0.0,-179.9996337890625,0.0,-0.0021328699127991513,0.0007968958915342084,2.6217856407165527
326,3.8627269892022014,16781055.3717299,88.71004486083984,237.42999267578125,2.6217856407165527,0.0,-179.9996337890625,0.0,-0.0021328699127991513,0.0007968958915342084,2.6217856407165527
327,3.8687269892543554,16781055.6640219,88.71004486083984,237.42999267578125,2.6217856407165527,0.0,-179.9996337890625,0.0,-0.0021328699127991513,0.0007968958915342084,2.6217856407165527
328,3.8747269893065095,16781055.983391,88.71004486083984,237.42999267578125,2.62178635597229,0.0,-179.9996337890625,0.0,-0.0021328699127991513,0.0007968958915342084,2.62178635597229
329,3.8807269893586636,16781056.2728191,88.71004486083984,237.42999267578125,2.62178635597229,0.0,-179.9996337890625,0.0,-0.0021328699127991513,0.0007968958915342084,2.62178635597229
330,3.8867269894108176,16781056.6526233,88.71004486083984,237.42999267578125,2.62178635597229,0.0,-179.9996337890625,0.0,-0.0021328699127991513,0.0007968958915342084,2.62178635597229
331,3.8927269894629717,16781057.0448666,88.71004486083984,237.42999267578125,2.62178635597229,0.0,-179.9996337890625,0.0,-0.0021328699127991513,0.0007968958915342084,2.62178635597229
